City,Country,Humidity,Lat,Lng,Temperature,Cloud Cover,Winds,Date
Avarua,CK,70,-21.2078,-159.775,86.0,40,9.22,1612403408
Hilo,US,57,19.7297,-155.09,74.86,40,16.11,1612403697
Albany,US,64,42.6001,-73.9662,27.28,86,10.0,1612403694
Bluff,NZ,61,-46.6,168.3333,56.93,0,23.02,1612403682
Port Alfred,ZA,91,-33.5906,26.891,70.0,38,1.99,1612403644
Novopokrovka,UA,93,49.8425,36.5477,41.0,90,6.71,1612404065
Punta Arenas,CL,77,-53.15,-70.9167,57.09,20,6.91,1612403691
Kailua,US,68,21.4022,-157.7394,71.04,90,10.36,1612404065
Sola,VU,79,-13.8833,167.55,81.81,100,11.03,1612404065
Ushuaia,AR,62,-54.8,-68.3,51.8,75,8.05,1612403426
Kapaa,US,68,22.0752,-159.319,73.18,40,8.05,1612403582
Paraná,AR,79,-31.732,-60.5238,72.0,0,3.0,1612404066
Suntar,RU,86,62.1444,117.6319,-19.61,100,3.58,1612404067
Muros,ES,82,42.7762,-9.0603,51.8,1,10.0,1612404067
East London,ZA,84,-33.0153,27.9116,72.81,46,16.62,1612403715
St. George's,GD,78,12.0564,-61.7485,80.6,20,20.71,1612403810
Margate,GB,90,51.3813,1.3862,42.98,1,1.01,1612403453
Ust-Maya,RU,78,60.4167,134.5333,-42.02,68,1.57,1612404068
Busselton,AU,53,-33.65,115.3333,65.62,0,1.99,1612403632
Upernavik,GL,70,72.7868,-56.1549,-15.52,0,4.85,1612403396
Rodrigues Alves,BR,95,-7.738,-72.6509,74.95,100,1.97,1612404069
Mataura,NZ,33,-46.1927,168.8643,65.75,0,8.21,1612403686
Zhangye,CN,65,38.9342,100.4517,28.15,63,2.15,1612404069
Khatanga,RU,88,71.9667,102.5,-17.68,13,12.44,1612403699
Hobart,AU,77,-42.8794,147.3294,71.78,75,10.36,1612403573
Yellowknife,CA,76,62.456,-114.3525,-19.32,90,6.91,1612403712
Vaini,TO,82,-21.2,-175.2,81.86,100,9.82,1612403692
São Filipe,CV,77,14.8961,-24.4956,72.03,86,10.36,1612403734
San Patricio,US,77,28.017,-97.5169,65.37,75,18.41,1612403726
Hong Kong,HK,60,22.2855,114.1577,65.79,0,1.01,1612403398
Dingle,PH,79,10.9995,122.6711,80.73,100,15.17,1612403713
Sibu,MY,94,2.3,111.8167,77.0,40,3.44,1612403808
Atuona,PF,71,-9.8,-139.0333,78.17,0,9.66,1612403695
Derzhavīnsk,KZ,97,51.1,66.3167,20.16,100,11.63,1612403717
Sensuntepeque,SV,83,13.8667,-88.6333,69.8,0,1.14,1612404072
Kaduy,RU,97,59.2,37.15,14.72,100,4.41,1612404072
Nanortalik,GL,83,60.1432,-45.2371,15.64,33,15.57,1612403710
Touros,BR,83,-5.1989,-35.4608,78.8,40,5.75,1612403715
Goldsboro,US,33,35.3849,-77.9928,40.68,1,6.91,1612404073
Qaanaaq,GL,64,77.484,-69.3632,-22.02,0,4.92,1612403576
Tura,IN,52,25.5198,90.2201,63.59,0,2.06,1612403808
Rikitea,PF,73,-23.1203,-134.9692,77.49,4,14.16,1612403690
Lakes Entrance,AU,58,-37.8811,147.981,82.0,100,5.01,1612404074
Puerto Ayora,EC,95,-0.7393,-90.3518,75.99,19,8.28,1612403695
Dikson,RU,91,73.5069,80.5464,-12.39,86,11.43,1612403723
Faanui,PF,76,-16.4833,-151.75,80.17,98,17.13,1612404075
Kahului,US,73,20.8947,-156.47,66.24,75,18.41,1612403484
Phalaborwa,ZA,100,-23.943,31.1411,73.4,28,1.14,1612404051
Saint-Pierre,RE,73,-21.3393,55.4781,74.35,0,4.61,1612404076
Chapais,CA,53,49.7834,-74.8492,19.4,75,10.36,1612403746
Boa Vista,BR,69,2.8197,-60.6733,82.4,40,5.75,1612404076
Butaritari,KI,83,3.0707,172.7902,81.52,67,15.19,1612403685
Norman Wells,CA,67,65.282,-126.8329,-36.4,75,4.61,1612403715
Markova,UA,79,48.6758,24.4138,42.66,100,11.39,1612404077
Naryan-Mar,RU,93,67.6713,53.087,-0.9,92,7.65,1612404077
Taree,AU,57,-31.9,152.4667,80.35,0,10.36,1612404077
Teruel,ES,93,40.6667,-0.6667,44.76,0,1.14,1612404077
Longyearbyen,SJ,68,78.2186,15.6401,23.0,75,14.97,1612403765
Bredasdorp,ZA,88,-34.5322,20.0403,60.8,47,4.61,1612403616
Usinsk,RU,93,65.9939,57.5281,-0.87,98,7.23,1612404078
Makakilo City,US,83,21.3469,-158.0858,70.54,90,9.22,1612403560
Quatre Cocos,MU,83,-20.2078,57.7625,77.32,40,3.44,1612403731
Arraial do Cabo,BR,86,-22.9661,-42.0278,76.73,0,23.06,1612403486
Port Blair,IN,73,11.6667,92.75,80.76,74,13.42,1612403776
Talnakh,RU,86,69.4865,88.3972,-20.4,98,2.15,1612404079
Podor,MR,18,16.6527,-14.9587,72.0,95,3.29,1612404079
Nikolskoye,RU,85,59.7035,30.7861,13.39,90,15.66,1612403681
Esna,EG,59,25.2934,32.554,60.8,20,5.75,1612404080
Chui,UY,93,-33.6971,-53.4616,67.78,100,18.57,1612403653
Sitka,US,75,57.0531,-135.33,37.4,90,5.75,1612403734
Henties Bay,NA,86,-22.116,14.2845,66.0,100,6.35,1612404081
Barrow,US,68,71.2906,-156.7887,-25.6,1,13.8,1612403664
Hermanus,ZA,93,-34.4187,19.2345,61.0,70,4.43,1612403709
Hobyo,SO,81,5.3505,48.5268,75.58,48,16.69,1612403744
Airai,TL,100,-8.9266,125.4092,62.91,100,4.07,1612403688
Guerrero Negro,MX,76,27.9769,-114.0611,62.71,99,18.12,1612403781
Fortuna,US,81,40.5982,-124.1573,46.6,1,10.36,1612403718
Iberia,US,61,29.9502,-91.7507,47.88,1,4.61,1612404082
Buchanan,LR,100,5.8808,-10.0467,75.2,40,6.35,1612404082
Lorengau,PG,70,-2.0226,147.2712,83.37,100,3.4,1612403752
Gijang,KR,45,35.2442,129.2139,41.0,0,10.36,1612404083
Husavik,IS,68,66.0449,-17.3389,19.4,0,3.44,1612404083
Mahon,ES,100,39.8885,4.2658,51.8,40,5.75,1612404083
Esperance,AU,55,-33.8667,121.9,60.8,90,20.71,1612403719
Port-Gentil,GA,79,-0.7193,8.7815,81.23,100,7.7,1612403742
Mahébourg,MU,83,-20.4081,57.7,78.8,40,3.44,1612403749
Zhigalovo,RU,95,54.8097,105.1578,21.67,100,11.23,1612404084
Provideniya,RU,82,64.3833,-173.3,-7.17,69,14.5,1612403729
Sampit,ID,82,-2.5333,112.95,80.6,100,2.93,1612404084
Klaksvík,FO,86,62.2266,-6.589,33.8,75,9.22,1612403643
Tuktoyaktuk,CA,66,69.4541,-133.0374,-41.8,20,6.91,1612403709
Iringa,TZ,95,-7.7667,35.7,56.5,100,3.31,1612404085
Fort Nelson,CA,71,58.8053,-122.7002,-5.8,75,5.75,1612403668
Lüderitz,NA,72,-26.6481,15.1594,65.19,0,14.0,1612403780
Cape Town,ZA,77,-33.9258,18.4232,67.28,20,12.66,1612403451
Belyy Yar,RU,64,53.6039,91.3903,30.2,0,4.47,1612404081
Rawson,AR,59,-43.3002,-65.1023,70.3,54,15.35,1612403748
Anadyr,RU,71,64.75,177.4833,-0.4,40,33.55,1612404087
Maués,BR,90,-3.3836,-57.7186,77.59,100,1.59,1612404087
Korla,CN,85,41.7597,86.1469,24.8,0,2.3,1612403772
Saquarema,BR,74,-22.92,-42.5103,80.6,0,5.75,1612404088
Shimoda,JP,43,34.6667,138.95,45.1,20,23.02,1612403412
Selma,US,50,36.5708,-119.6121,53.4,1,9.22,1612404089
Blackpool,GB,100,53.8167,-3.05,40.33,100,5.99,1612404090
Lebu,CL,90,-37.6167,-73.65,57.83,2,13.04,1612403701
Ouidah,BJ,84,6.3631,2.0851,84.2,40,13.8,1612404090
Majene,ID,66,-3.5403,118.9707,84.94,100,6.15,1612404090
Saldanha,ZA,82,-33.0117,17.9442,62.6,6,5.75,1612403634
Fatezh,RU,97,52.0891,35.8632,33.75,100,10.22,1612404091
San Juan,AR,24,-31.5375,-68.5364,75.65,0,4.92,1612403747
Dukat,RU,89,62.55,155.55,-7.8,100,15.05,1612404091
Laas,IT,93,46.6166,10.7002,33.84,90,4.76,1612403826
Paita,PE,76,-5.0892,-81.1144,73.67,9,11.32,1612404091
Ribeira Grande,PT,65,38.5167,-28.7,55.76,79,29.3,1612403726
Inuvik,CA,74,68.3499,-133.7218,-38.2,22,2.3,1612404020
Cabedelo,BR,83,-6.9811,-34.8339,77.0,20,4.61,1612403769
Coracora,PE,75,-15.0333,-73.7833,52.48,100,2.3,1612404092
Richards Bay,ZA,91,-28.783,32.0377,73.58,100,4.14,1612404092
Coahuayana Viejo,MX,64,18.7333,-103.6833,75.2,40,1.66,1612403784
Broken Hill,AU,19,-31.95,141.4333,86.0,100,13.8,1612403755
George Town,MY,69,5.4112,100.3354,78.06,20,4.61,1612403714
New Norfolk,AU,56,-42.7826,147.0587,72.64,94,4.0,1612403699
Lithgow,AU,69,-33.4833,150.15,73.99,63,1.99,1612404093
Clyde River,CA,83,70.4692,-68.5914,-20.2,90,5.75,1612403799
Carnarvon,AU,100,-24.8667,113.6333,82.4,90,27.63,1612403684
Grindavik,IS,75,63.8424,-22.4338,35.6,0,26.46,1612403716
Port Shepstone,ZA,75,-30.7414,30.455,74.82,94,4.41,1612404094
Colares,PT,92,38.7992,-9.4469,55.65,100,6.49,1612404095
Agadez,NE,36,19.75,10.25,57.06,0,11.63,1612404095
Tuatapere,NZ,44,-46.1333,167.6833,65.71,0,9.35,1612403730
Fairbanks,US,77,64.8378,-147.7164,-7.15,90,1.54,1612403827
Haines Junction,CA,76,60.7522,-137.5108,-16.6,99,1.66,1612403806
Pavlovka,RU,98,52.6897,47.1405,32.14,100,8.77,1612404096
Yoichi,JP,79,43.2039,140.7703,17.6,75,5.75,1612403777
Itoman,JP,59,26.1247,127.6694,65.59,20,10.36,1612404096
Balotra,IN,48,25.8333,72.2333,55.17,0,0.81,1612404096
Kotdwāra,IN,76,29.75,78.5333,51.8,75,9.22,1612404097
Santiago,CL,47,-33.4569,-70.6483,76.3,0,8.05,1612403858
Ca Mau,VN,62,9.1769,105.15,81.12,99,7.61,1612404097
Bambous Virieux,MU,83,-20.3428,57.7575,77.47,40,3.44,1612403740
Leningradskiy,RU,85,69.3833,178.4167,-25.47,21,7.96,1612404098
Saskylakh,RU,78,71.9167,114.0833,-37.61,0,6.67,1612403694
La Santisima Trinidad,BO,93,-14.8333,-64.9,75.76,92,1.81,1612404098
Chyhyryn,UA,95,49.0838,32.6555,33.75,93,8.75,1612404099
Ilulissat,GL,41,69.2167,-51.1,-5.8,7,10.36,1612403751
Avera,US,60,33.194,-82.5271,35.47,1,6.2,1612404099
Jamestown,US,93,42.097,-79.2353,21.36,1,8.05,1612403687
Mar del Plata,AR,82,-38.0023,-57.5575,66.02,20,9.22,1612403700
Lososina,RU,75,48.9975,140.3106,-6.56,4,11.61,1612404100
Khor,RU,86,47.8861,134.9464,-14.04,73,14.38,1612404100
Saint-Philippe,RE,73,-21.3585,55.7679,71.2,0,4.61,1612403732
Taltal,CL,72,-25.4,-70.4833,65.55,47,3.47,1612404046
Grand Baie,MU,86,-20.0182,57.5802,75.99,3,3.0,1612404073
Hofn,IS,91,64.2539,-15.2082,31.73,39,14.27,1612404101
Nishihara,JP,48,26.1842,127.7558,65.66,40,8.05,1612403738
Rocha,UY,96,-34.4833,-54.3333,66.24,100,4.76,1612403708
Maxixe,MZ,91,-23.8597,35.3472,76.73,11,4.18,1612404102
Souillac,MU,83,-20.5167,57.5167,78.8,40,3.44,1612403662
Sakakah,SA,39,29.9697,40.2064,64.4,75,13.8,1612404102
Port Lincoln,AU,85,-34.7333,135.8667,61.81,100,17.36,1612403761
Ampanihy,MG,52,-24.7,44.75,78.71,0,7.11,1612403941
Macaé,BR,83,-22.3708,-41.7869,78.8,0,3.44,1612404103
Sawākin,SD,77,19.1059,37.3321,75.6,0,3.29,1612404103
Lewisporte,CA,100,49.2499,-55.0482,41.94,90,13.8,1612404103
Wuda,CN,66,39.4994,106.7117,29.46,0,2.55,1612404103
Sabang,ID,76,5.8933,95.3214,81.64,47,23.94,1612403788
General Roca,AR,53,-39.0333,-67.5833,73.4,0,8.66,1612404104
Khorixas,NA,62,-20.3667,14.9667,67.57,0,2.75,1612404104
Mahibadhoo,MV,72,3.7833,72.9667,82.11,100,17.65,1612403738
Kavaratti,IN,63,10.5669,72.642,81.27,76,7.25,1612404105
Ochamchira,GE,58,42.7121,41.4721,51.66,100,3.0,1612404105
Comodoro Rivadavia,AR,68,-45.8667,-67.5,64.4,0,9.22,1612403656
Broome,US,58,42.2506,-75.833,26.44,90,17.27,1612404105
Christchurch,NZ,51,-43.5333,172.6333,63.39,90,13.8,1612403927
Casino,AU,54,-28.8667,153.05,80.15,1,5.75,1612404106
Coari,BR,95,-4.085,-63.1414,76.1,92,0.92,1612404106
Olafsvik,IS,80,64.8945,-23.7142,36.37,100,30.94,1612403630
Kismayo,SO,85,-0.3582,42.5454,75.06,51,11.61,1612403596
Port Hedland,AU,62,-20.3167,118.5667,87.8,75,10.36,1612403716
Chhaprauli,IN,61,29.2167,77.1833,54.99,11,5.66,1612404107
Mount Isa,AU,40,-20.7333,139.5,93.2,40,12.66,1612404107
Spanish Town,JM,69,17.9911,-76.9574,72.25,20,12.66,1612404107
Cayenne,GF,83,4.9333,-52.3333,80.6,90,11.5,1612403717
Pingzhuang,CN,88,42.0372,119.2889,21.87,0,11.23,1612404107
Kontagora,NG,18,10.3999,5.4695,72.75,9,6.55,1612403856
Murmashi,RU,85,68.8154,32.8115,12.2,75,1.9,1612404108
High Level,CA,84,58.5169,-117.136,-11.2,75,1.74,1612404108
Reconquista,AR,92,-29.15,-59.65,64.87,0,3.49,1612404108
Philadelphia,US,55,39.9523,-75.1638,31.91,75,14.97,1612403826
Mitsamiouli,KM,70,-11.3847,43.2844,82.31,47,4.38,1612403797
Katsuura,JP,25,35.1333,140.3,51.22,20,19.57,1612403732
Nome,US,55,64.5011,-165.4064,-2.2,1,6.91,1612403679
Hohhot,CN,56,40.8106,111.6522,10.4,0,2.24,1612404109
Chokurdakh,RU,93,70.6333,147.9167,0.19,84,11.5,1612403724
Fort Frances,CA,64,48.5999,-93.4003,31.91,90,3.44,1612404007
Punta de Bombón,PE,78,-17.1717,-71.7931,70.81,100,2.59,1612404110
Agirish,RU,92,61.9247,63.0231,1.4,6,6.15,1612404110
Businga,CD,57,3.3333,20.8833,78.75,64,1.92,1612403950
Tiarei,PF,83,-17.5333,-149.3333,77.0,40,8.05,1612404111
Walvis Bay,NA,86,-22.9575,14.5053,66.0,66,6.87,1612404111
Iqaluit,CA,71,63.7506,-68.5145,-4.0,90,3.44,1612403713
Bintulu,MY,94,3.1667,113.0333,78.4,40,2.3,1612404111
South Lyon,US,81,42.4606,-83.6516,21.96,0,1.01,1612404111
Saint Paul Harbor,US,75,57.79,-152.4072,33.8,1,2.39,1612403726
Mossamedes,AO,76,-15.1961,12.1522,70.47,54,8.66,1612403752
Ust-Kuyga,RU,79,70.0167,135.6,-38.29,66,4.94,1612404112
Nyurba,RU,86,63.2842,118.3319,-20.96,100,4.23,1612403765
Buraidah,SA,55,26.326,43.975,59.0,0,2.3,1612404113
Cidreira,BR,91,-30.1811,-50.2056,76.75,100,10.8,1612403724
Seydi,TM,62,39.4816,62.9137,44.89,64,7.76,1612404113
Maragogi,BR,82,-9.0122,-35.2225,77.34,13,7.11,1612403668
Sørland,NO,80,67.667,12.6934,35.28,70,25.5,1612404113
Ponta Delgada,PT,71,37.7333,-25.6667,50.38,40,5.75,1612404114
Cockburn Town,TC,56,21.4612,-71.1419,72.77,69,5.66,1612403890
Goderich,CA,86,43.7501,-81.7165,15.8,0,2.3,1612404077
Qui Nhon,VN,84,13.7667,109.2333,71.67,99,14.23,1612404114
Qarqīn,AF,72,37.4185,66.0436,46.13,0,6.15,1612403941
Hay River,CA,70,60.8156,-115.7999,-13.0,100,4.61,1612403943
Northam,GB,92,51.0333,-4.2167,41.68,0,5.99,1612403788
Lata,PT,89,40.1629,-8.3327,51.28,100,3.62,1612403903
Ukiah,US,81,39.1502,-123.2078,44.1,40,1.79,1612404115
Cherskiy,RU,79,68.75,161.3,5.7,44,8.9,1612403712
Bengkulu,ID,70,-3.8004,102.2655,82.53,85,4.54,1612403712
Hualmay,PE,74,-11.0964,-77.6139,70.84,100,7.11,1612404116
Severo-Kuril'sk,RU,92,50.6789,156.125,11.16,100,31.38,1612403682
Novoagansk,RU,94,61.9449,76.6625,1.15,83,7.07,1612404116
Araouane,ML,21,18.9048,-3.5265,69.73,12,7.7,1612404117
Awjilah,LY,89,29.1081,21.2869,54.03,0,10.94,1612404117
Maniitsoq,GL,74,65.4167,-52.9,1.47,19,8.16,1612404118
Marawi,PH,82,7.9986,124.2928,82.0,2,3.0,1612403712
Shetpe,KZ,90,44.1667,52.1167,37.42,84,3.29,1612404118
Nara,JP,57,34.6851,135.8049,45.1,75,10.36,1612404053
Maunabo,PR,94,18.0072,-65.8993,72.28,0,4.85,1612404118
Safita,SY,76,34.8205,36.1153,57.27,90,3.0,1612404119
Bethel,US,69,41.3712,-73.414,29.01,90,4.61,1612403720
Kuytun,RU,95,54.3419,101.5036,17.87,100,10.38,1612404119
Wuhan,CN,66,30.5833,114.2667,50.0,79,8.95,1612403821
Aginskoye,RU,91,51.1,114.53,-1.43,96,3.4,1612404120
Noumea,NC,99,-22.2763,166.4572,82.99,63,12.64,1612404120
Lipin Bor,RU,97,60.2622,37.9763,14.59,100,5.03,1612404120
Kaitangata,NZ,63,-46.2817,169.8464,57.0,0,8.99,1612403738
Sinjai,ID,74,-5.1241,120.253,81.59,100,2.26,1612404120
Coquimbo,CL,88,-29.9533,-71.3436,59.0,40,10.36,1612403704
Erbil,IQ,66,36.1926,44.0106,48.2,20,5.75,1612404121
Sajanan,TN,82,37.0573,9.2426,50.95,20,8.05,1612404122
Sinop Province,TR,63,41.7711,34.8709,47.43,89,5.23,1612404122
Huarmey,PE,79,-10.0681,-78.1522,70.07,75,6.53,1612404122
Tateyama,JP,31,34.9833,139.8667,51.66,0,14.0,1612403878
Slave Lake,CA,77,55.2834,-114.769,-5.8,90,4.61,1612403688
Kabo,CF,23,7.6994,18.629,71.76,3,3.76,1612404123
Kapit,MY,85,2.0167,112.9333,79.29,100,0.76,1612404123
Rovaniemi,FI,85,66.5,25.7167,10.4,0,12.66,1612404123
Luorong,CN,59,24.4058,109.6086,68.29,100,1.66,1612404123
Curup,ID,78,-3.4667,102.5333,76.05,94,1.28,1612404124
Yemel'yanovo,RU,79,56.1681,92.6767,15.8,40,15.66,1612404124
Ahipara,NZ,56,-35.1667,173.1667,72.66,2,3.4,1612403618
Kavieng,PG,66,-2.5744,150.7967,85.06,9,6.82,1612403727
Baiyin,CN,41,36.5583,104.2081,20.1,0,4.47,1612403760
Plettenberg Bay,ZA,89,-34.0527,23.3716,64.96,36,3.06,1612403798
Haimen,CN,72,23.1935,116.6142,62.6,0,2.24,1612404125
Lagoa,PT,65,39.05,-27.9833,54.07,99,31.41,1612403764
Srednekolymsk,RU,87,67.45,153.6833,-18.71,35,3.11,1612403722
Havelock,US,42,34.8791,-76.9013,40.32,1,9.22,1612403748
San Cristobal,VE,76,7.7669,-72.225,67.64,59,1.36,1612403936
San Jose,US,58,37.3394,-121.895,52.99,75,10.36,1612404059
Fremont,US,66,37.5483,-121.9886,52.11,90,9.22,1612404062
Simeonovgrad,BG,10,42.0333,25.8333,48.0,4,3.27,1612404127
Mthatha,ZA,94,-31.5889,28.7844,66.2,0,2.91,1612404127
Namioka,JP,86,40.7072,140.5894,23.32,75,5.75,1612404127
Watsa,CD,55,3.0372,29.5355,68.59,53,2.44,1612403709
São João da Barra,BR,86,-21.6403,-41.0511,77.47,0,17.9,1612403708
Talwandi Bhai,IN,91,30.85,74.9333,47.3,72,7.72,1612403837
Vahan,AM,84,40.5755,45.3977,29.32,50,6.55,1612404128
Bay-Khaak,RU,90,51.1667,94.5,6.04,100,2.89,1612404128
Vágur,FO,77,61.4732,-6.8119,37.8,50,28.16,1612404128
Yabrūd,SY,53,33.9674,36.6574,51.04,0,8.05,1612404128
Cangzhou,CN,52,38.3167,116.8667,38.53,0,11.25,1612404129
Ćićevac,RS,87,43.7188,21.4408,42.78,0,1.14,1612404129
Brae,GB,60,60.3964,-1.353,33.8,20,11.5,1612404129
Mweka,CD,98,-4.85,21.5667,68.65,100,2.68,1612404129
Chukhloma,RU,97,58.7525,42.6825,19.15,100,6.93,1612404129
Itarema,BR,81,-2.9248,-39.9167,79.34,93,13.11,1612403753
Puerto del Rosario,ES,77,28.5004,-13.8627,60.8,0,8.05,1612404130
Meulaboh,ID,81,4.1363,96.1285,78.75,58,5.23,1612403736
Ust'-Omchug,RU,84,61.15,149.6333,-14.17,100,12.24,1612403796
Tomatlán,MX,90,19.9333,-105.25,66.7,0,1.92,1612404131
Kalanguy,RU,90,51.0167,116.5167,-7.06,97,2.33,1612404131
Quelimane,MZ,89,-17.8786,36.8883,82.4,40,2.73,1612404132
Chumphon,TH,78,10.3333,98.8333,80.28,40,4.61,1612404132
Phan Thiet,VN,52,10.9333,108.1,79.79,3,3.58,1612404133
Mabaruma,GY,94,8.2,-59.7833,74.41,100,4.68,1612403780
Sioux Lookout,CA,74,50.1001,-91.917,30.2,90,4.61,1612404133
Atherton,GB,89,53.5237,-2.4935,41.05,100,3.0,1612404068
Te Anau,NZ,42,-45.4167,167.7167,66.18,2,1.21,1612404095
San Miguel de Tucumán,AR,83,-26.8241,-65.2226,71.6,0,5.75,1612404134
Mayo,US,56,38.8876,-76.5119,38.82,1,9.22,1612403721
Gweta,BW,84,-20.1833,25.2333,71.46,99,6.38,1612404134
Moerai,PF,72,-22.4333,-151.3333,81.57,71,10.67,1612404135
Winnemucca,US,80,40.973,-117.7357,30.2,40,4.61,1612404135
Nairobi,KE,77,-1.2833,36.8167,64.4,75,5.75,1612404014
Ostrołęka,PL,91,53.0862,21.5757,36.0,100,4.0,1612404135
Riyadh,SA,34,24.6877,46.7219,60.6,0,3.44,1612404006
General Bravo,MX,68,25.8,-99.1667,69.22,0,19.55,1612404136
Vila Franca do Campo,PT,71,37.7167,-25.4333,49.82,40,5.75,1612403704
Tasiilaq,GL,92,65.6145,-37.6368,18.72,71,10.0,1612403709
Tiksi,RU,85,71.6872,128.8694,-25.67,98,2.91,1612403661
Bonthe,SL,85,7.5264,-12.505,77.58,0,6.11,1612403772
Løding,NO,79,67.3,14.75,14.4,20,10.36,1612404137
Amberg,DE,76,49.4414,11.8622,45.32,90,11.5,1612404137
Impfondo,CG,79,1.6381,18.0667,76.64,95,3.09,1612404137
Tilichiki,RU,97,60.4667,166.1,19.63,58,10.85,1612404137
Hithadhoo,MV,73,-0.6,73.0833,82.71,90,8.9,1612403382
Pechora,RU,93,65.1472,57.2244,0.36,95,4.36,1612404138
Rome,US,68,43.2128,-75.4557,25.97,90,8.32,1612403886
Aksha,RU,86,50.2814,113.2867,7.45,3,3.6,1612404138
Khandyga,RU,74,62.6667,135.6,-46.91,21,1.14,1612404138
Bandarbeyla,SO,76,9.4942,50.8122,70.29,0,13.71,1612403770
Praia da Vitória,PT,82,38.7333,-27.0667,51.04,40,27.89,1612403758
Samarai,PG,71,-10.6167,150.6667,84.27,99,10.85,1612403637
Dīdwāna,IN,40,27.4,74.5667,56.35,0,3.6,1612404139
Ulladulla,AU,54,-35.35,150.4667,79.75,20,11.5,1612404140
Salar,ES,100,37.1499,-4.0191,49.8,20,2.24,1612404140
Itupiranga,BR,88,-5.1347,-49.3267,74.91,4,1.43,1612403954
Jalu,LY,89,29.0331,21.5482,53.8,0,10.92,1612403892
Ancud,CL,77,-41.8697,-73.8203,59.0,0,5.75,1612403795
Dwārka,IN,78,22.2394,68.9678,68.04,90,9.86,1612403810
Ponta do Sol,PT,70,32.6667,-17.1,48.99,8,3.0,1612403683
Shumskiy,RU,93,54.8318,99.1328,18.18,100,6.62,1612404141
Tapes,BR,91,-30.6733,-51.3958,76.26,100,10.4,1612403909
Denpasar,ID,70,-8.65,115.2167,86.0,20,6.91,1612404142
Petropavlovsk-Kamchatskiy,RU,41,53.0452,158.6483,17.6,100,17.9,1612404073
Simao,CN,61,22.7886,100.9748,62.55,0,1.92,1612404142
Poronaysk,RU,82,49.2167,143.1167,-14.26,67,2.62,1612404142
Tsimmerbude,RU,80,54.675,20.1347,27.68,90,17.9,1612403775
Yumen,CN,68,40.2833,97.2,26.71,19,23.4,1612404143
Bambanglipuro,ID,68,-7.95,110.2833,83.32,100,3.13,1612404143
Castro,BR,90,-24.7911,-50.0119,69.08,100,3.13,1612403685
Beringovskiy,RU,92,63.05,179.3167,2.05,100,17.49,1612403737
Port Macquarie,AU,50,-31.4333,152.9167,84.06,0,1.99,1612403606
Mehamn,NO,93,71.0357,27.8492,29.1,100,21.43,1612403807
Dolores,AR,82,-36.3132,-57.6792,60.55,99,8.84,1612404144
Ola,RU,86,59.5833,151.2833,3.0,62,19.42,1612404144
Pisco,PE,78,-13.7,-76.2167,71.78,0,12.66,1612403697
Los Llanos de Aridane,ES,88,28.6585,-17.9182,58.57,75,4.61,1612403787
Belaya Gora,RU,87,68.5333,146.4167,-21.3,94,3.42,1612403760
Kemijärvi,FI,96,66.7131,27.4306,18.73,100,9.62,1612404145
Shahrud,IR,72,36.4182,54.9763,37.04,100,2.46,1612403950
Shenjiamen,CN,81,29.9576,122.298,49.33,0,12.33,1612404145
Bendigo,AU,35,-36.7667,144.2833,81.09,100,1.01,1612404104
Brainerd,US,74,46.358,-94.2008,30.38,90,12.66,1612404146
Kumul,CN,81,42.8,93.45,27.41,12,4.07,1612403687
Cabo San Lucas,MX,64,22.8909,-109.9124,70.05,20,6.91,1612403601
Dzaoudzi,YT,83,-12.7887,45.2699,80.6,75,4.61,1612404146
Luancheng,CN,40,37.8792,114.6517,32.0,98,5.75,1612404147
Laguna,US,62,38.421,-121.4238,54.03,75,6.91,1612403700
Cocorit,MX,40,27.5833,-109.9667,73.4,90,3.44,1612404147
Flinders,AU,65,-34.5833,150.8552,80.94,2,5.01,1612404147
Codrington,AU,34,-38.2667,141.9667,79.66,100,11.79,1612403719
Burnie,AU,68,-41.0667,145.9167,70.0,90,10.0,1612404131
Liuhe,CN,84,42.2401,125.7172,8.83,7,9.26,1612404148
Muzhi,RU,90,65.3667,64.6667,2.32,74,6.8,1612404148
Darnah,LY,81,32.767,22.6367,57.74,0,11.92,1612404149
Krasnogorsk,RU,93,55.8225,37.3181,27.77,90,8.95,1612404149
Tuzla,BA,100,44.5428,18.6694,35.6,0,3.44,1612404149
Tessalit,ML,22,20.1986,1.0114,66.45,0,15.08,1612403742
Morón,AR,77,-34.6534,-58.6198,71.01,100,3.0,1612403631
Taoudenni,ML,24,22.6783,-3.9836,66.49,0,5.95,1612403687
Xiaoweizhai,CN,89,26.1903,107.5125,54.19,100,3.47,1612404150
Kyshtovka,RU,94,56.555,76.6271,1.98,50,8.14,1612404150
Marzuq,YE,42,14.4,46.4667,52.7,0,2.3,1612403998
Totness,SR,87,5.8833,-56.3167,77.38,75,13.82,1612404151
Ixtapa,MX,94,20.7,-105.2,70.9,1,0.4,1612404151
Morant Bay,JM,69,17.8815,-76.4093,72.36,20,12.66,1612404151
Kuril'sk,RU,88,45.2333,147.8833,13.68,100,18.57,1612404151
Geraldton,AU,50,-28.7667,114.6,75.2,75,26.46,1612403734
Khani,GE,75,41.9563,42.9566,37.4,0,5.75,1612404152
Dingzhou,CN,40,38.5131,114.9956,32.0,62,6.29,1612404152
Alta Floresta,BR,89,-9.8756,-56.0861,73.99,100,2.08,1612404084
Termez,UZ,87,37.2242,67.2783,39.2,0,9.22,1612404153
Maizuru,JP,93,35.45,135.3333,39.0,75,4.61,1612404153
Ayaviri,PE,85,-14.8864,-70.5889,43.27,100,1.32,1612404153
Yenagoa,NG,90,4.9247,6.2642,77.77,0,2.57,1612404153
Arrondissement de Perpignan,FR,93,42.75,2.75,50.5,75,2.3,1612404019
Karratha,AU,73,-20.7377,116.8463,85.1,6,15.55,1612403620
Griffith,US,80,41.5284,-87.4237,24.73,1,4.61,1612404154
The Pas,CA,78,53.8251,-101.2541,6.8,90,13.8,1612404070
Saint Anthony,US,80,45.0205,-93.218,30.96,75,9.22,1612404154
Krasnyy Yar,RU,100,46.5331,48.3456,30.2,89,6.71,1612404155
Chihuahua,MX,20,28.5,-106.0,70.72,40,11.27,1612404015
Korsakov,RU,78,46.6328,142.7813,3.2,75,2.24,1612404155
Nālūt,LY,51,30.3333,10.85,51.93,36,5.21,1612404155
Sesheke,ZM,94,-17.4759,24.2968,67.62,100,7.92,1612403781
Arrondissement de Bourges,FR,93,47.25,2.4167,40.28,0,5.75,1612404156
Kisangani,CD,82,0.5167,25.2,73.38,100,3.2,1612404156
Port Elizabeth,ZA,88,-33.918,25.5701,68.0,0,9.22,1612403574
Am Timan,TD,20,11.0297,20.2827,72.28,0,8.5,1612404156
Fukuechō,JP,76,32.6881,128.8419,50.0,75,12.66,1612404042
‘Āhuimanu,US,68,21.4447,-157.8378,71.1,90,10.36,1612404158
Yuancheng,CN,61,36.652,107.7896,33.67,100,2.55,1612404159
Huittinen,FI,85,61.1833,22.7,4.6,20,6.91,1612404159
Iwanai,JP,91,42.9744,140.5089,17.69,100,15.68,1612404159
Cururupu,BR,88,-1.8283,-44.8683,76.51,39,4.12,1612403774
Pecos,US,17,31.4229,-103.4932,71.6,1,13.67,1612404160
Mount Gambier,AU,36,-37.8333,140.7667,77.0,90,12.66,1612403733
Prainha,BR,84,-1.8,-53.48,77.09,70,5.41,1612404160
Westport,US,69,41.1415,-73.3579,31.82,88,1.01,1612404160
Kruisfontein,ZA,86,-34.0033,24.7314,68.0,8,5.57,1612403728
Morro Bay,US,74,35.3658,-120.8499,54.77,3,1.01,1612403696
Ngunguru,NZ,72,-35.6167,174.5,69.13,1,9.78,1612403771
Tautira,PF,83,-17.7333,-149.15,77.0,40,8.05,1612403796
Binabalian Ricor,PH,70,16.4202,119.9279,77.85,0,12.3,1612404162
Panjāb,AF,83,34.388,67.0233,6.1,0,3.58,1612404162
Katherine,AU,66,-14.4667,132.2667,87.8,40,10.36,1612404162
Pevek,RU,74,69.7008,170.3133,-7.37,0,8.75,1612403699
Waipawa,NZ,63,-41.4122,175.5153,62.92,90,21.85,1612404163
Bud,US,74,39.447,-86.1758,27.07,1,3.18,1612403728
Santa Isabel Rio Negro,BR,91,-0.4139,-65.0192,75.92,82,2.66,1612404163
Novyy Nekouz,RU,98,57.9029,38.07,20.01,99,6.78,1612404164
Cap Malheureux,MU,86,-19.9842,57.6142,75.99,0,3.0,1612403692
Mahon,ES,100,39.8885,4.2658,51.8,40,5.75,1612404164
Pedreiras,BR,90,-4.5688,-44.6003,75.74,7,2.39,1612404164
Pirgos,GR,77,35.1167,25.7178,57.0,7,4.63,1612404164
Aliquippa,US,74,40.6367,-80.2401,24.1,40,10.36,1612404165
Constitución,CL,60,-35.3333,-72.4167,64.85,0,8.66,1612403777
Itapetinga,BR,95,-15.2489,-40.2478,70.47,100,3.44,1612404054
Murgeni,RO,84,46.2044,28.0197,40.84,98,6.17,1612404165
Cravo Norte,CO,43,6.3017,-70.2041,84.96,0,4.81,1612404165
Caravelas,BR,88,-17.7125,-39.2481,75.51,36,5.61,1612403717
Cairns,AU,66,-16.9167,145.7667,87.51,91,6.91,1612403787
College,US,77,64.8569,-147.8028,-7.13,90,3.44,1612403707
Clarksdale,US,75,34.2001,-90.5709,42.35,44,6.44,1612404166
Erzin,TR,66,36.9559,36.2,57.0,99,11.99,1612404166
Johi,PK,37,26.6921,67.6133,54.86,0,7.61,1612404167
Half Moon Bay,US,87,37.4636,-122.4286,50.5,1,5.75,1612403788
Tigil',RU,95,57.8,158.6667,13.51,98,0.43,1612404167
Marabu,MY,89,4.4148,114.0089,80.31,40,3.74,1612403763
Oranjestad,AW,83,12.524,-70.027,78.8,20,18.41,1612403775
Zhalantun,CN,78,48.0,122.7167,-7.73,93,2.8,1612403762
Salisbury,GB,100,51.0693,-1.7957,40.33,0,5.75,1612403973
Vardø,NO,93,70.3705,31.1107,29.37,100,21.83,1612404168
São Gabriel da Cachoeira,BR,97,-0.1303,-67.0892,74.84,100,1.43,1612404168
Dengzhou,CN,74,37.8086,120.7508,35.13,0,11.72,1612404169
Vieux-Habitants,GP,94,16.0589,-61.7659,75.2,75,4.61,1612404169
Were Īlu,ET,44,10.6,39.4333,46.08,0,5.14,1612404169
Lhokseumawe,ID,73,5.1801,97.1507,81.03,94,4.92,1612404169
Prince Rupert,CA,93,54.3161,-130.3201,37.81,90,11.5,1612403594
Lázaro Cárdenas,MX,85,17.9583,-102.2,74.95,8,6.8,1612404170
Baruun-Urt,MN,90,46.6806,113.2792,8.91,84,15.5,1612404170
Evensk,RU,90,61.95,159.2333,10.78,100,32.28,1612403776
Aykhal,RU,83,66.0,111.5,-24.66,100,3.02,1612404170
Santiago de Cuba,CU,68,20.0247,-75.8219,68.0,20,10.36,1612404171
Port Hardy,CA,93,50.6996,-127.4199,41.0,90,2.3,1612403680
Cabra,ES,87,37.4725,-4.4421,48.63,90,3.44,1612404171
Bubaque,GW,67,11.2833,-15.8333,77.85,68,14.72,1612403743
Asău,RO,64,46.4333,26.4,41.0,82,6.08,1612403699
Pathein,MM,64,16.7833,94.7333,74.07,0,7.9,1612404172
Pestyaki,RU,98,56.7103,42.6717,21.13,100,6.42,1612404172
Lima,PE,78,-12.0432,-77.0282,72.91,0,5.75,1612403593
Salalah,OM,52,17.0151,54.0924,64.4,0,5.75,1612403776
Torbay,CA,100,47.6666,-52.7314,47.17,90,18.41,1612403716
Meru,KE,53,0.0463,37.6559,58.14,77,4.68,1612404172
Den Helder,NL,93,52.9599,4.7593,44.44,90,13.8,1612403952
Doha,QA,82,25.2867,51.5333,59.9,0,3.44,1612404075
Örnsköldsvik,SE,85,63.2909,18.7153,12.2,20,11.5,1612403747
Portland,US,87,45.5234,-122.6762,41.83,81,2.06,1612403452
Savelugu,GH,17,9.6244,-0.8253,78.1,0,5.5,1612404174
Porto-Novo,BJ,84,6.4965,2.6036,84.2,40,13.8,1612403765
Mwense,ZM,91,-10.3845,28.698,64.33,23,3.11,1612404174
Baykit,RU,86,61.67,96.37,-10.86,95,1.66,1612404174
Narsaq,GL,57,60.9167,-46.05,12.2,54,4.61,1612403728
Sur,OM,66,22.5667,59.5289,65.55,0,0.2,1612404175
Mana,GF,85,5.6592,-53.7767,77.74,97,15.17,1612404175
Aden,YE,78,12.7794,45.0367,73.62,0,12.03,1612404027
Windhoek,NA,54,-22.5594,17.0832,70.0,88,8.01,1612403758
Port-de-Bouc,FR,93,43.4,4.9833,45.93,100,5.75,1612404036
Juye,CN,1,35.3947,116.0883,46.0,92,1.99,1612404176
Fuerte Olimpo,PY,86,-21.0415,-57.8738,77.97,85,0.65,1612404093
Gurupi,BR,84,-11.7292,-49.0686,74.77,92,3.06,1612404176
Sinnamary,GF,85,5.3833,-52.95,78.24,100,14.76,1612403755
Rāni,IN,48,25.3503,73.3089,56.21,0,4.41,1612404177
Bestöbe,KZ,99,52.4994,73.0975,25.95,100,4.88,1612404177
Tungor,RU,80,53.3808,142.9564,-19.17,0,17.38,1612404177
Bijapur,IN,69,16.8333,75.7,62.64,1,8.97,1612404178
Sarangani,PH,76,5.4033,125.4636,82.13,95,19.1,1612404178
Belgrade,RS,66,44.804,20.4651,45.72,0,10.36,1612404178
Kargasok,RU,95,59.0556,80.8572,5.68,100,8.46,1612404179
Bartica,GY,94,6.4,-58.6167,77.0,75,6.91,1612404099
Fort-Shevchenko,KZ,86,44.5086,50.263,43.09,93,7.92,1612404179
Yeppoon,AU,58,-23.1333,150.7333,86.0,40,16.11,1612403730
Agbor,NG,88,6.2518,6.1934,77.04,0,3.62,1612404179
Altamira,BR,76,-3.2033,-52.2064,75.56,4,2.68,1612404180
Grand-Santi,GF,96,4.25,-54.3833,73.92,99,3.27,1612404180
Zabul Province,AF,81,32.25,67.25,32.0,0,1.01,1612404180
Kununurra,AU,83,-15.7667,128.7333,82.4,75,19.57,1612404180
Pryluky,UA,97,50.5932,32.3876,32.92,100,9.31,1612404041
Tarko-Sale,RU,95,64.9225,77.785,3.76,100,7.43,1612404085
Puerto Baquerizo Moreno,EC,87,-0.9,-89.6,76.3,29,10.69,1612404147
Amahai,ID,61,-3.3333,128.9167,86.88,100,3.06,1612404046
Cartagena,CO,83,10.3997,-75.5144,78.8,40,11.5,1612404005
Teguise,ES,72,29.0605,-13.564,62.6,75,8.05,1612404182
Hamilton,US,80,39.1834,-84.5333,25.25,1,0.87,1612404008
Bilma,NE,34,18.6853,12.9164,59.22,0,14.14,1612403705
Upata,VE,94,8.0086,-62.3989,75.99,2,4.0,1612404182
Soverato Marina,IT,93,38.685,16.5499,51.8,0,6.91,1612404182
Erdaojiang,CN,83,41.7764,126.0319,5.65,2,5.14,1612404183
Severnoye,RU,94,56.3491,78.3619,2.97,31,8.41,1612404183
Shache,CN,88,38.4167,77.2406,23.95,0,1.88,1612404183
Zyryanka,RU,86,65.75,150.85,-19.79,100,18.88,1612404183
Phrae,TH,94,18.0833,100.0,66.2,0,2.84,1612404183
Kamenka,RU,97,51.3223,42.7678,36.0,100,8.32,1612404184
Bonavista,CA,100,48.6499,-53.1147,45.5,99,6.91,1612404031
Sorong,ID,71,-0.8833,131.25,84.58,99,11.52,1612403758
Muisne,EC,88,0.6,-80.0333,77.18,26,1.45,1612404185
Xichang,CN,51,27.8964,102.2634,49.24,60,1.52,1612404185
Robertsport,LR,86,6.7533,-11.3686,79.83,19,8.99,1612404185
Thompson,CA,78,55.7435,-97.8558,-2.2,90,11.5,1612404009
Leeton,AU,35,-34.5667,146.4,87.8,100,18.41,1612404185
Nisibis,TR,58,37.0778,41.2178,53.6,0,6.91,1612404186
Guymon,US,26,36.6828,-101.4816,66.2,1,9.22,1612403733
Bathsheba,BB,69,13.2167,-59.5167,78.8,40,25.32,1612403785
Nelson Bay,AU,51,-32.7167,152.15,83.08,0,12.66,1612404045
Natal,BR,78,-5.795,-35.2094,79.7,20,6.91,1612404187
Clarence Town,AU,51,-32.5833,151.7833,83.21,0,12.66,1612404188
Carauari,BR,98,-4.8828,-66.8958,73.62,100,2.89,1612403692
Hambantota,LK,88,6.1241,81.1185,75.2,90,11.5,1612403801
Lompoc,US,71,34.6391,-120.4579,50.02,1,12.66,1612404188
Manicoré,BR,96,-5.8092,-61.3003,75.92,99,1.36,1612404188
Khorinsk,RU,90,52.1657,109.7726,2.1,100,2.37,1612404189
Camacha,PT,76,33.0833,-16.3333,55.4,40,23.02,1612403782
Tonantins,BR,96,-2.8731,-67.8022,74.71,100,2.13,1612404189
Beloha,MG,69,-25.1667,45.05,75.25,1,8.46,1612403725
Malkāpur,IN,31,20.8833,76.2,61.72,0,5.55,1612404190
Manjacaze,MZ,97,-24.7117,33.8828,71.02,53,1.95,1612404190
Bosaso,SO,72,11.2842,49.1816,68.02,5,2.19,1612404191
Vestmanna,FO,86,62.1564,-7.1664,33.8,75,9.22,1612403721
Andenes,NO,86,69.3143,16.1194,31.6,75,26.46,1612404062
Tyukalinsk,RU,94,55.8732,72.1967,1.85,6,7.9,1612404191
Bam,IR,52,29.106,58.357,43.81,0,1.39,1612404191
Hasaki,JP,50,35.7333,140.8333,48.04,20,12.66,1612403777
Dillon,US,52,34.4166,-79.3712,37.13,1,6.91,1612404192
San Quintín,MX,80,30.4833,-115.95,60.4,99,11.18,1612404192
Praia,CV,81,14.9215,-23.5087,70.72,100,14.47,1612403803
Chuka,KE,58,-0.3332,37.6459,58.3,61,5.19,1612404192
Shyroke,UA,100,47.6917,33.2571,34.38,90,8.95,1612404193
Turukhansk,RU,92,65.8167,87.9833,-5.91,100,2.86,1612403718
Inhambane,MZ,91,-23.865,35.3833,77.49,67,5.03,1612403752
Dutlwe,BW,93,-23.9833,23.9,66.29,100,14.36,1612404193
Halifax,CA,100,44.6453,-63.5724,37.78,100,5.75,1612404154
Tahoua,NE,23,14.8888,5.2692,67.39,0,15.5,1612404126
Athabasca,CA,77,54.7169,-113.2854,-5.8,79,5.75,1612404194
Grão Mogol,BR,93,-16.5594,-42.8897,65.8,9,2.71,1612404194
Vila do Maio,CV,78,15.1333,-23.2167,69.8,0,17.27,1612404195
Villa Carlos Paz,AR,85,-31.4241,-64.4978,61.83,9,1.99,1612404196
La Ronge,CA,78,55.1001,-105.2842,5.0,100,6.91,1612403722
Kenai,US,86,60.5544,-151.2583,16.34,90,9.22,1612404196
Vao,NC,87,-22.6667,167.4833,78.73,24,18.54,1612404196
Poum,NC,79,-20.2333,164.0167,80.55,21,16.44,1612404047
Dauphin,CA,93,51.1494,-100.0502,23.0,90,10.36,1612404035
Nuevo Progreso,MX,63,23.1667,-97.95,65.25,9,10.09,1612404197
Daru,PG,63,-9.0763,143.2092,88.25,4,9.89,1612404035
Utica,US,74,43.1009,-75.2327,25.05,90,9.15,1612404180
Hammerfest,NO,68,70.6634,23.6821,26.6,40,16.11,1612403755
Imuris,MX,37,30.7833,-110.8667,64.78,88,4.74,1612404198
Rong Kwang,TH,94,18.339,100.3174,66.2,4,2.64,1612404057
